[
    {
        "Station":"Kayoro EC",
        "Lat":10.918,
        "Long":-1.321,
        "Timezone":"Africa\/Accra"
    },
    {
        "Station":"Doninga ",
        "Lat":10.61716,
        "Long":-1.42024,
        "Timezone":"Africa\/Accra"
    },
    {
        "Station":"Bongo Soe",
        "Lat":10.9731,
        "Long":-0.7827,
        "Timezone":"Africa\/Accra"
    },
    {
        "Station":"Nabugubulle ",
        "Lat":10.70298,
        "Long":-1.86879,
        "Timezone":"Africa\/Accra"
    },
    {
        "Station":"Gwosi",
        "Lat":10.47788,
        "Long":-1.64832,
        "Timezone":"Africa\/Accra"
    },
    {
        "Station":"Bongo  Atampisi",
        "Lat":10.91501,
        "Long":-0.82647,
        "Timezone":"Africa\/Accra"
    },
    {
        "Station":"Manyoro",
        "Lat":10.98143,
        "Long":-0.99589,
        "Timezone":"Africa\/Accra"
    },
    {
        "Station":"Aniabiisi",
        "Lat":10.84571,
        "Long":-0.91218,
        "Timezone":"Africa\/Accra"
    },
    {
        "Station":"Nazinga EC",
        "Lat":11.1516,
        "Long":-1.5857,
        "Timezone":"Africa\/Accra"
    },
    {
        "Station":"Oualem ",
        "Lat":11.2046,
        "Long":-1.3098,
        "Timezone":"Africa\/Accra"
    },
    {
        "Station":"Nebou",
        "Lat":11.3055,
        "Long":-1.8799,
        "Timezone":"Africa\/Accra"
    },
    {
        "Station":"Tabou ",
        "Lat":11.3665,
        "Long":-2.1689,
        "Timezone":"Africa\/Accra"
    },
    {
        "Station":"Nazinga ",
        "Lat":11.1334,
        "Long":-1.56682,
        "Timezone":"Africa\/Accra"
    },
    {
        "Station":"Atampisi",
        "Lat":10.91501,
        "Long":-0.82647,
        "Timezone":"Africa\/Accra"
    },
    {
        "Station":"Dreyer Foundation",
        "Lat":11.1635827174,
        "Long":-3.0754969673,
        "Timezone":"Africa\/Ouagadougou"
    },
    {
        "Station":"Lare",
        "Lat":11.1927707247,
        "Long":-3.0953630256,
        "Timezone":"Africa\/Ouagadougou"
    },
    {
        "Station":"Bankandi",
        "Lat":11.2450132556,
        "Long":-3.0775427736,
        "Timezone":"Africa\/Ouagadougou"
    },
    {
        "Station":"Wahabl\u00e9",
        "Lat":11.3255858216,
        "Long":-3.07318399,
        "Timezone":"Africa\/Ouagadougou"
    },
    {
        "Station":"Fafo",
        "Lat":11.327031917,
        "Long":-3.0234325626,
        "Timezone":"Africa\/Ouagadougou"
    },
    {
        "Station":"Yabogane",
        "Lat":11.2616261657,
        "Long":-2.9681436977,
        "Timezone":"Africa\/Ouagadougou"
    },
    {
        "Station":"Tambiri 1",
        "Lat":11.1839311532,
        "Long":-2.9779895787,
        "Timezone":"Africa\/Ouagadougou"
    },
    {
        "Station":"Tambiri 2",
        "Lat":11.1818691212,
        "Long":-2.977669152,
        "Timezone":"Africa\/Ouagadougou"
    },
    {
        "Station":"Pouri (Fandohoun)",
        "Lat":10.9139336885,
        "Long":1.111898281,
        "Timezone":"Africa\/Porto-Novo"
    },
    {
        "Station":"Nagass\u00e9ga",
        "Lat":10.8496810418,
        "Long":1.1016128103,
        "Timezone":"Africa\/Porto-Novo"
    },
    {
        "Station":"Koundri",
        "Lat":10.7919982761,
        "Long":1.1086775259,
        "Timezone":"Africa\/Porto-Novo"
    },
    {
        "Station":"Koupendri",
        "Lat":10.7795815027,
        "Long":1.1633362945,
        "Timezone":"Africa\/Porto-Novo"
    },
    {
        "Station":"Ouriyori 2",
        "Lat":10.8496810418,
        "Long":1.1016128103,
        "Timezone":"Africa\/Porto-Novo"
    },
    {
        "Station":"Ouriyori 1",
        "Lat":10.81854256,
        "Long":1.0670546012,
        "Timezone":"Africa\/Porto-Novo"
    },
    {
        "Station":"Want\u00e9houn",
        "Lat":10.7616292936,
        "Long":1.171124526,
        "Timezone":"Africa\/Porto-Novo"
    },
    {
        "Station":"Pouri",
        "Lat":10.9139336885,
        "Long":1.111898281,
        "Timezone":"Africa\/Porto-Novo"
    },
    {
        "Station":"Fandohoun",
        "Lat":10.9139336885,
        "Long":1.111898281,
        "Timezone":"Africa\/Porto-Novo"
    }
]